{
  "type": "FeatureCollection",
  "features": [
    {
      "type": "Feature",
      "geometry": { "type": "Point", "coordinates": [-70.4907, -31.7194] },
      "properties": {
        "id": "los-pelambres",
        "name": "Los Pelambres",
        "operator": "Antofagasta · Chile",
        "country": "Chile",
        "type": "competitor",
        "caption": "Antofagasta · Chile",
        "labelBelow": true,
        "minZoom": 7.0,
        "tagline": "Ranked ~#10–12 worldwide by mined copper output; 319.6 kt Cu produced in 2024 with 2024 reserves of ~2.1 Bt; life-extension project pushes operations to 2051."
      }
    },
    {
      "type": "Feature",
      "geometry": { "type": "Point", "coordinates": [-71.1061, -32.652] },
      "properties": {
        "id": "el-soldado",
        "name": "El Soldado",
        "operator": "Anglo American · Chile",
        "country": "Chile",
        "type": "competitor",
        "caption": "Anglo American · Chile",
        "minZoom": 7.0,
        "tagline": "Open-pit Cu mine 132 km north of Santiago and Anglo's smallest Chilean asset (outside the global top 20); ~48 kt Cu in 2024; US$295 M investment is extending mine life from 2027 to 2037."
      }
    },
    {
      "type": "Feature",
      "geometry": { "type": "Point", "coordinates": [-70.2624, -33.1203] },
      "properties": {
        "id": "los-bronces-andina",
        "name": "Los Bronces / Andina",
        "operator": "Anglo American · Codelco · Chile",
        "country": "Chile",
        "type": "competitor",
        "caption": "Anglo American · Codelco",
        "tagline": "Adjacent giants now under a joint mine plan — combined already a top-10 operation (Los Bronces alone ~172 kt Cu in 2024) and projected to reach top-5 globally once the +120 kt/yr synergy lands; together hold ~60 Mt contained Cu, roughly 2% of global copper reserves and resources."
      }
    },
    {
      "type": "Feature",
      "geometry": { "type": "Point", "coordinates": [-70.3722, -34.0999] },
      "properties": {
        "id": "el-teniente",
        "name": "El Teniente",
        "operator": "Codelco · Chile",
        "country": "Chile",
        "type": "competitor",
        "caption": "Codelco · Chile",
        "tagline": "#3 copper mine worldwide and the largest underground operation; ~310 kt Cu produced in 2025 (impacted by July collapse); sixth-largest copper reserve globally."
      }
    },
    {
      "type": "Feature",
      "geometry": { "type": "Point", "coordinates": [-69.4412, -32.2455] },
      "properties": {
        "id": "san-jorge",
        "name": "San Jorge",
        "country": "Argentina",
        "type": "deposit"
      }
    },
    {
      "type": "Feature",
      "geometry": { "type": "Point", "coordinates": [-70.2849, -33.1549] },
      "properties": {
        "id": "rio-blanco",
        "name": "Rio Blanco",
        "country": "Chile",
        "type": "deposit",
        "compact": true,
        "minZoom": 7.0
      }
    },
    {
      "type": "Feature",
      "geometry": { "type": "Point", "coordinates": [-70.257, -33.2003] },
      "properties": {
        "id": "los-sulfatos",
        "name": "Los Sulfatos",
        "country": "Chile",
        "type": "deposit",
        "compact": true,
        "minZoom": 7.0
      }
    },
    {
      "type": "Feature",
      "geometry": { "type": "Point", "coordinates": [-69.965000, -34.119722] },
      "properties": {
        "id": "escalones",
        "name": "Escalones",
        "country": "Chile",
        "type": "deposit",
        "labelPos": "2"
      }
    },
    {
      "type": "Feature",
      "geometry": { "type": "Point", "coordinates": [-68.7955, -34.6405] },
      "properties": {
        "id": "infiernillo",
        "name": "Infiernillo",
        "country": "Argentina",
        "type": "deposit"
      }
    },
    {
      "type": "Feature",
      "geometry": { "type": "Point", "coordinates": [-70.1572, -35.2769] },
      "properties": {
        "id": "cerro-amarillo",
        "name": "Cerro Amarillo",
        "country": "Argentina",
        "type": "deposit",
        "labelPos": "3",
        "minZoom": 7.0
      }
    },
    {
      "type": "Feature",
      "geometry": { "type": "Point", "coordinates": [-70.077, -34.8682] },
      "properties": {
        "id": "el-perdido",
        "name": "El Perdido",
        "country": "Argentina",
        "type": "deposit"
      }
    },
    {
      "type": "Feature",
      "geometry": { "type": "Point", "coordinates": [-70.1667, -35.8049] },
      "properties": {
        "id": "el-destino",
        "name": "El Destino",
        "country": "Argentina",
        "type": "deposit",
        "compact": true,
        "minZoom": 7.0
      }
    },
    {
      "type": "Feature",
      "geometry": { "type": "Point", "coordinates": [-70.2259, -35.5334] },
      "properties": {
        "id": "el-seguro",
        "name": "El Seguro",
        "country": "Argentina",
        "type": "deposit",
        "labelBelow": true,
        "minZoom": 7.0
      }
    },
    {
      "type": "Feature",
      "geometry": { "type": "Point", "coordinates": [-70.05, -34.95] },
      "properties": {
        "id": "las-estrellas",
        "name": "Las Estrellas",
        "operator": "Argentina Metals",
        "country": "Argentina",
        "type": "flagship",
        "caption": "Río Damas · Argentina"
      }
    }
  ]
}
