{
  "type": "FeatureCollection",
  "features": [
    {
      "type": "Feature",
      "geometry": { "type": "Point", "coordinates": [-70.4907, -31.7194] },
      "properties": {
        "id": "los-pelambres",
        "name": "Los Pelambres",
        "operator": "Antofagasta · Chile",
        "country": "Chile",
        "type": "competitor",
        "caption": "Antofagasta · Chile",
        "labelBelow": true,
        "minZoom": 7.0,
        "tagline": "Top-10 global copper mine; 319.6 kt Cu produced in 2024 with 2024 reserves of ~2.1 Bt; life-extension project pushes operations to 2051."
      }
    },
    {
      "type": "Feature",
      "geometry": { "type": "Point", "coordinates": [-71.1061, -32.652] },
      "properties": {
        "id": "el-soldado",
        "name": "El Soldado",
        "operator": "Anglo American · Chile",
        "country": "Chile",
        "type": "competitor",
        "caption": "Anglo American · Chile",
        "minZoom": 7.0,
        "tagline": "Open-pit Cu mine 132 km north of Santiago; ~48 kt Cu in 2024; US$295 M investment is extending mine life from 2027 to 2037."
      }
    },
    {
      "type": "Feature",
      "geometry": { "type": "Point", "coordinates": [-70.2624, -33.1203] },
      "properties": {
        "id": "los-bronces-andina",
        "name": "Los Bronces / Andina",
        "operator": "Anglo American · Codelco · Chile",
        "country": "Chile",
        "type": "competitor",
        "caption": "Anglo American · Codelco",
        "tagline": "Adjacent giants now under a joint mine plan; together hold ~60 Mt contained Cu — roughly 2% of global copper reserves and resources."
      }
    },
    {
      "type": "Feature",
      "geometry": { "type": "Point", "coordinates": [-70.3722, -34.0999] },
      "properties": {
        "id": "el-teniente",
        "name": "El Teniente",
        "operator": "Codelco · Chile",
        "country": "Chile",
        "type": "competitor",
        "caption": "Codelco · Chile",
        "tagline": "Largest underground copper mine in the world; ~310 kt Cu produced in 2025 (impacted by July collapse); sixth-largest copper reserve globally."
      }
    },
    {
      "type": "Feature",
      "geometry": { "type": "Point", "coordinates": [-69.4412, -32.2455] },
      "properties": {
        "id": "san-jorge",
        "name": "San Jorge",
        "country": "Argentina",
        "type": "deposit",
        "tagline": "Mendoza's first major modern Cu project; 1.2 Mt Cu resource at 0.48% Cu; US$559M capex, ~40 kt Cu/yr planned from 2029; RIGI-approved."
      }
    },
    {
      "type": "Feature",
      "geometry": { "type": "Point", "coordinates": [-70.2849, -33.1549] },
      "properties": {
        "id": "rio-blanco",
        "name": "Rio Blanco",
        "country": "Chile",
        "type": "deposit",
        "compact": true,
        "minZoom": 7.0,
        "tagline": "Northern half of the Rio Blanco–Los Bronces district — the world's greatest known concentration of copper."
      }
    },
    {
      "type": "Feature",
      "geometry": { "type": "Point", "coordinates": [-70.257, -33.2003] },
      "properties": {
        "id": "los-sulfatos",
        "name": "Los Sulfatos",
        "country": "Chile",
        "type": "deposit",
        "compact": true,
        "minZoom": 7.0,
        "tagline": "High-grade hypogene Cu-Mo porphyry 6 km south of Los Bronces; 1.2 Bt inferred at 1.46% Cu (~17.5 Mt contained Cu); exploration target 4–5 Bt."
      }
    },
    {
      "type": "Feature",
      "geometry": { "type": "Point", "coordinates": [-69.9591, -34.1172] },
      "properties": {
        "id": "escalones",
        "name": "Escalones",
        "country": "Chile",
        "type": "deposit",
        "labelPos": "2",
        "tagline": "Chile's largest undeveloped oxide-copper resource — 426 Mt at 0.37% Cu inferred (~3.45 Blb Cu); 35 km east of El Teniente."
      }
    },
    {
      "type": "Feature",
      "geometry": { "type": "Point", "coordinates": [-68.7955, -34.6405] },
      "properties": {
        "id": "infiernillo",
        "name": "Infiernillo",
        "country": "Argentina",
        "type": "deposit",
        "tagline": "Cu-(Mo) porphyry deposit in the San Rafael Massif, southern Mendoza — geologically defined, undeveloped."
      }
    },
    {
      "type": "Feature",
      "geometry": { "type": "Point", "coordinates": [-70.1572, -35.2769] },
      "properties": {
        "id": "cerro-amarillo",
        "name": "Cerro Amarillo",
        "country": "Argentina",
        "type": "deposit",
        "labelPos": "3",
        "minZoom": 7.0,
        "tagline": "Cluster of five Cu-Mo-Au porphyry intrusions in Malargüe, southern Mendoza; >2,000 ha; early-stage drilling underway."
      }
    },
    {
      "type": "Feature",
      "geometry": { "type": "Point", "coordinates": [-70.077, -34.8682] },
      "properties": {
        "id": "el-perdido",
        "name": "El Perdido",
        "country": "Argentina",
        "type": "deposit",
        "tagline": "2 km × 2 km Cu-Au-Mo porphyry footprint in Western Malargüe; Phase 1 diamond drilling began January 2026."
      }
    },
    {
      "type": "Feature",
      "geometry": { "type": "Point", "coordinates": [-70.1667, -35.8049] },
      "properties": {
        "id": "el-destino",
        "name": "El Destino",
        "country": "Argentina",
        "type": "deposit",
        "compact": true,
        "minZoom": 7.0,
        "tagline": "9,487-ha Cu-Au-Mo porphyry system mapped at surface in Western Malargüe; classic porphyry alteration, drill-ready, not yet tested."
      }
    },
    {
      "type": "Feature",
      "geometry": { "type": "Point", "coordinates": [-70.2259, -35.5334] },
      "properties": {
        "id": "el-seguro",
        "name": "El Seguro",
        "country": "Argentina",
        "type": "deposit",
        "labelBelow": true,
        "minZoom": 7.0,
        "tagline": "Cu porphyry target within the 733 km² Western Malargüe project portfolio."
      }
    },
    {
      "type": "Feature",
      "geometry": { "type": "Point", "coordinates": [-70.05, -34.95] },
      "properties": {
        "id": "las-estrellas",
        "name": "Las Estrellas",
        "operator": "Argentina Metals",
        "country": "Argentina",
        "type": "flagship",
        "caption": "Río Damas · Argentina",
        "tagline": "Stacked copper systems — manto-type oxides in the Río Damas Formation plus porphyry Cu-Au signatures in the overlying Huincan; 144 surface rock chips returned up to 9,978 ppm Cu."
      }
    }
  ]
}
