{
  "type": "FeatureCollection",
  "features": [
    {
      "type": "Feature",
      "geometry": { "type": "Point", "coordinates": [-70.4907, -31.7194] },
      "properties": {
        "id": "los-pelambres",
        "name": "Los Pelambres",
        "operator": "Antofagasta · Chile",
        "country": "Chile",
        "type": "competitor",
        "caption": "Antofagasta · Chile",
        "labelBelow": true,
        "minZoom": 7.5
      }
    },
    {
      "type": "Feature",
      "geometry": { "type": "Point", "coordinates": [-71.1061, -32.652] },
      "properties": {
        "id": "el-soldado",
        "name": "El Soldado",
        "operator": "Anglo American · Chile",
        "country": "Chile",
        "type": "competitor",
        "caption": "Anglo American · Chile"
      }
    },
    {
      "type": "Feature",
      "geometry": { "type": "Point", "coordinates": [-70.2624, -33.1203] },
      "properties": {
        "id": "los-bronces-andina",
        "name": "Los Bronces / Andina",
        "operator": "Anglo American · Codelco · Chile",
        "country": "Chile",
        "type": "competitor",
        "caption": "Anglo American · Codelco"
      }
    },
    {
      "type": "Feature",
      "geometry": { "type": "Point", "coordinates": [-70.3722, -34.0999] },
      "properties": {
        "id": "el-teniente",
        "name": "El Teniente",
        "operator": "Codelco · Chile",
        "country": "Chile",
        "type": "competitor",
        "caption": "Codelco · Chile"
      }
    },
    {
      "type": "Feature",
      "geometry": { "type": "Point", "coordinates": [-69.4412, -32.2455] },
      "properties": {
        "id": "san-jorge",
        "name": "San Jorge",
        "country": "Argentina",
        "type": "deposit"
      }
    },
    {
      "type": "Feature",
      "geometry": { "type": "Point", "coordinates": [-70.2849, -33.1549] },
      "properties": {
        "id": "rio-blanco",
        "name": "Rio Blanco",
        "country": "Chile",
        "type": "deposit",
        "compact": true,
        "minZoom": 8
      }
    },
    {
      "type": "Feature",
      "geometry": { "type": "Point", "coordinates": [-70.257, -33.2003] },
      "properties": {
        "id": "los-sulfatos",
        "name": "Los Sulfatos",
        "country": "Chile",
        "type": "deposit",
        "compact": true,
        "minZoom": 8
      }
    },
    {
      "type": "Feature",
      "geometry": { "type": "Point", "coordinates": [-69.9591, -34.1172] },
      "properties": {
        "id": "escalones",
        "name": "Escalones",
        "country": "Chile",
        "type": "deposit",
        "labelPos": "2"
      }
    },
    {
      "type": "Feature",
      "geometry": { "type": "Point", "coordinates": [-68.7955, -34.6405] },
      "properties": {
        "id": "infiernillo",
        "name": "Infiernillo",
        "country": "Argentina",
        "type": "deposit",
        "minZoom": 7.5
      }
    },
    {
      "type": "Feature",
      "geometry": { "type": "Point", "coordinates": [-70.1572, -35.2769] },
      "properties": {
        "id": "cerro-amarillo",
        "name": "Cerro Amarillo",
        "country": "Argentina",
        "type": "deposit",
        "minZoom": 7.6
      }
    },
    {
      "type": "Feature",
      "geometry": { "type": "Point", "coordinates": [-70.077, -34.8682] },
      "properties": {
        "id": "el-perdido",
        "name": "El Perdido",
        "country": "Argentina",
        "type": "deposit"
      }
    },
    {
      "type": "Feature",
      "geometry": { "type": "Point", "coordinates": [-70.1667, -35.8049] },
      "properties": {
        "id": "el-destino",
        "name": "El Destino",
        "country": "Argentina",
        "type": "deposit",
        "compact": true,
        "minZoom": 8
      }
    },
    {
      "type": "Feature",
      "geometry": { "type": "Point", "coordinates": [-70.2259, -35.5334] },
      "properties": {
        "id": "el-seguro",
        "name": "El Seguro",
        "country": "Argentina",
        "type": "deposit",
        "labelBelow": true,
        "minZoom": 7.3
      }
    },
    {
      "type": "Feature",
      "geometry": { "type": "Point", "coordinates": [-70.05, -34.95] },
      "properties": {
        "id": "las-estrellas",
        "name": "Las Estrellas",
        "operator": "Argentina Metals",
        "country": "Argentina",
        "type": "flagship",
        "caption": "Río Damas · Argentina"
      }
    }
  ]
}
