{
  "type": "FeatureCollection",
  "features": [
    {
      "type": "Feature",
      "geometry": { "type": "Point", "coordinates": [-70.291, -33.148] },
      "properties": {
        "id": "los-bronces",
        "name": "Los Bronces",
        "operator": "Anglo American",
        "country": "Chile",
        "type": "competitor",
        "caption": "Anglo American · Chile"
      }
    },
    {
      "type": "Feature",
      "geometry": { "type": "Point", "coordinates": [-70.355, -34.083] },
      "properties": {
        "id": "el-teniente",
        "name": "El Teniente",
        "operator": "Codelco",
        "country": "Chile",
        "type": "competitor",
        "caption": "Codelco · Chile"
      }
    },
    {
      "type": "Feature",
      "geometry": { "type": "Point", "coordinates": [-70.000, -34.070] },
      "properties": {
        "id": "escalones",
        "name": "Escalones",
        "country": "Chile",
        "type": "deposit",
        "labelBelow": true
      }
    },
    {
      "type": "Feature",
      "geometry": { "type": "Point", "coordinates": [-69.320, -34.550] },
      "properties": {
        "id": "infiernillo",
        "name": "Infiernillo",
        "country": "Argentina",
        "type": "deposit"
      }
    },
    {
      "type": "Feature",
      "geometry": { "type": "Point", "coordinates": [-70.275, -35.180] },
      "properties": {
        "id": "cerro-amarillo",
        "name": "Cerro Amarillo",
        "country": "Argentina",
        "type": "deposit"
      }
    },
    {
      "type": "Feature",
      "geometry": { "type": "Point", "coordinates": [-69.585, -35.475] },
      "properties": {
        "id": "malargue",
        "name": "Malargüe",
        "country": "Argentina",
        "type": "city",
        "caption": "Ciudad · Mendoza"
      }
    },
    {
      "type": "Feature",
      "geometry": { "type": "Point", "coordinates": [-70.380, -35.350] },
      "properties": {
        "id": "las-estrellas",
        "name": "Las Estrellas",
        "operator": "Argentina Metals",
        "country": "Argentina",
        "type": "flagship",
        "caption": "Río Damas · Argentina"
      }
    }
  ]
}
